{"type":"FeatureCollection","features":[{"type":"Feature","id":"0","geometry":{"type":"Point","coordinates":[2.5014494346077,48.677200741510504]},"properties":{"nom":"Île-de-France","nb_orgues":736}},{"type":"Feature","id":"1","geometry":{"type":"Point","coordinates":[1.590863237499439,47.6441333322795]},"properties":{"nom":"Centre-Val de Loire","nb_orgues":250}},{"type":"Feature","id":"2","geometry":{"type":"Point","coordinates":[4.99249435788615,47.2783252914275]},"properties":{"nom":"Bourgogne-Franche-Comté","nb_orgues":442}},{"type":"Feature","id":"3","geometry":{"type":"Point","coordinates":[-0.07229962564034997,49.126225630674995]},"properties":{"nom":"Normandie","nb_orgues":562}},{"type":"Feature","id":"4","geometry":{"type":"Point","coordinates":[2.81688101494355,49.963169589436]},"properties":{"nom":"Hauts-de-France","nb_orgues":682}},{"type":"Feature","id":"5","geometry":{"type":"Point","coordinates":[5.80937857149355,48.795257936556]},"properties":{"nom":"Grand Est","nb_orgues":2508}},{"type":"Feature","id":"6","geometry":{"type":"Point","coordinates":[-0.822573383953075,47.417280519696504]},"properties":{"nom":"Pays de la Loire","nb_orgues":464}},{"type":"Feature","id":"7","geometry":{"type":"Point","coordinates":[-2.9051162296507504,48.154687452732]},"properties":{"nom":"Bretagne","nb_orgues":425}},{"type":"Feature","id":"8","geometry":{"type":"Point","coordinates":[0.40994910693179987,44.976635108258]},"properties":{"nom":"Nouvelle-Aquitaine","nb_orgues":509}},{"type":"Feature","id":"9","geometry":{"type":"Point","coordinates":[-61.6765931942585,16.1540706856755]},"properties":{"nom":"Guadeloupe","nb_orgues":9}},{"type":"Feature","id":"10","geometry":{"type":"Point","coordinates":[-61.019989787163496,14.636421259678]},"properties":{"nom":"Martinique","nb_orgues":6}},{"type":"Feature","id":"11","geometry":{"type":"Point","coordinates":[-53.1138912280205,3.93204901546485]},"properties":{"nom":"Guyane","nb_orgues":6}},{"type":"Feature","id":"12","geometry":{"type":"Point","coordinates":[55.526881838278,-21.130672550993502]},"properties":{"nom":"La Réunion","nb_orgues":1}},{"type":"Feature","id":"13","geometry":{"type":"Point","coordinates":[45.1405473406765,-12.827373428108]},"properties":{"nom":"Mayotte"}},{"type":"Feature","id":"14","geometry":{"type":"Point","coordinates":[2.25923388136695,43.689961371314496]},"properties":{"nom":"Occitanie","nb_orgues":572}},{"type":"Feature","id":"15","geometry":{"type":"Point","coordinates":[4.6235895980203,45.459794376849004]},"properties":{"nom":"Auvergne-Rhône-Alpes","nb_orgues":673}},{"type":"Feature","id":"16","geometry":{"type":"Point","coordinates":[5.9736093715955,44.0769023352385]},"properties":{"nom":"Provence-Alpes-Côte d'Azur","nb_orgues":408}},{"type":"Feature","id":"17","geometry":{"type":"Point","coordinates":[9.04966440635685,42.188804938036995]},"properties":{"nom":"Corse","nb_orgues":100}}]}
